[
    {
        "city": "New York",
        "latitude": 40.7127281,
        "longitude": -74.0060152
    },
    {
        "city": "Buffalo",
        "latitude": 42.8867166,
        "longitude": -78.8783922
    },
    {
        "city": "Rochester",
        "latitude": 43.157285,
        "longitude": -77.615214
    },
    {
        "city": "Yonkers",
        "latitude": 40.9312099,
        "longitude": -73.8987469
    },
    {
        "city": "Syracuse",
        "latitude": 43.0481221,
        "longitude": -76.1474244
    },
    {
        "city": "Albany",
        "latitude": 42.6511674,
        "longitude": -73.754968
    },
    {
        "city": "New Rochelle",
        "latitude": 40.9115386,
        "longitude": -73.7826363
    },
    {
        "city": "Mount Vernon",
        "latitude": 40.9125085,
        "longitude": -73.8386504
    },
    {
        "city": "Schenectady",
        "latitude": 42.8142432,
        "longitude": -73.9395687
    },
    {
        "city": "Utica",
        "latitude": 43.1009031,
        "longitude": -75.2326641
    },
    {
        "city": "White Plains",
        "latitude": 41.0339862,
        "longitude": -73.7629097
    },
    {
        "city": "Hempstead",
        "latitude": 40.6736812,
        "longitude": -73.6190736
    },
    {
        "city": "Troy",
        "latitude": 42.7284117,
        "longitude": -73.6917878
    },
    {
        "city": "Niagara Falls",
        "latitude": 43.08436,
        "longitude": -79.0614686
    },
    {
        "city": "Binghamton",
        "latitude": 42.098698,
        "longitude": -75.9125187
    },
    {
        "city": "Freeport",
        "latitude": 40.6576071,
        "longitude": -73.5835826
    },
    {
        "city": "Valley Stream",
        "latitude": 40.6631362,
        "longitude": -73.7056955
    },
    {
        "city": "Los Angeles",
        "latitude": 34.0536909,
        "longitude": -118.242766
    },
    {
        "city": "San Diego",
        "latitude": 32.7174202,
        "longitude": -117.1627728
    },
    {
        "city": "San Jose",
        "latitude": 37.3361663,
        "longitude": -121.890591
    },
    {
        "city": "San Francisco",
        "latitude": 37.7790262,
        "longitude": -122.419906
    },
    {
        "city": "Fresno",
        "latitude": 36.7295295,
        "longitude": -119.70886126075588
    },
    {
        "city": "Sacramento",
        "latitude": 38.5810606,
        "longitude": -121.493895
    },
    {
        "city": "Long Beach",
        "latitude": 33.7690164,
        "longitude": -118.191604
    },
    {
        "city": "Oakland",
        "latitude": 37.8044557,
        "longitude": -122.271356
    },
    {
        "city": "Bakersfield",
        "latitude": 35.3738712,
        "longitude": -119.0194639
    },
    {
        "city": "Anaheim",
        "latitude": 33.8347516,
        "longitude": -117.911732
    },
    {
        "city": "Santa Ana",
        "latitude": 33.7494951,
        "longitude": -117.8732213
    },
    {
        "city": "Riverside",
        "latitude": 33.9533546,
        "longitude": -117.3961623
    },
    {
        "city": "Stockton",
        "latitude": 37.9577016,
        "longitude": -121.2907796
    },
    {
        "city": "Chula Vista",
        "latitude": 32.6400541,
        "longitude": -117.0841955
    },
    {
        "city": "Irvine",
        "latitude": 33.6856969,
        "longitude": -117.8259819
    },
    {
        "city": "Fremont",
        "latitude": 37.5482697,
        "longitude": -121.988571
    },
    {
        "city": "San Bernardino",
        "latitude": 34.108285,
        "longitude": -117.2897065
    },
    {
        "city": "Modesto",
        "latitude": 37.6390972,
        "longitude": -120.9968782
    },
    {
        "city": "Fontana",
        "latitude": 34.0922335,
        "longitude": -117.435048
    },
    {
        "city": "Oxnard",
        "latitude": 34.1976308,
        "longitude": -119.1803818
    },
    {
        "city": "Chicago",
        "latitude": 41.8755616,
        "longitude": -87.6244212
    },
    {
        "city": "Aurora",
        "latitude": 41.7571701,
        "longitude": -88.3147539
    },
    {
        "city": "Rockford",
        "latitude": 42.2713945,
        "longitude": -89.093966
    },
    {
        "city": "Joliet",
        "latitude": 41.5263603,
        "longitude": -88.0840212
    },
    {
        "city": "Naperville",
        "latitude": 41.7728699,
        "longitude": -88.1479278
    },
    {
        "city": "Springfield",
        "latitude": 39.7990175,
        "longitude": -89.6439575
    },
    {
        "city": "Peoria",
        "latitude": 40.6938609,
        "longitude": -89.5891008
    },
    {
        "city": "Elgin",
        "latitude": 42.03726,
        "longitude": -88.2810994
    },
    {
        "city": "Waukegan",
        "latitude": 42.3636331,
        "longitude": -87.8447938
    },
    {
        "city": "Cicero",
        "latitude": 41.8455398,
        "longitude": -87.7540199
    },
    {
        "city": "Champaign",
        "latitude": 40.1164841,
        "longitude": -88.2430932
    },
    {
        "city": "Bloomington",
        "latitude": 40.4797828,
        "longitude": -88.9939147
    },
    {
        "city": "Arlington Heights",
        "latitude": 42.0811563,
        "longitude": -87.9802164
    },
    {
        "city": "Evanston",
        "latitude": 42.0447388,
        "longitude": -87.6930459
    },
    {
        "city": "Decatur",
        "latitude": 39.8454163,
        "longitude": -88.9524151
    },
    {
        "city": "Schaumburg",
        "latitude": 42.0333608,
        "longitude": -88.083406
    },
    {
        "city": "Bolingbrook",
        "latitude": 41.7003302,
        "longitude": -88.0717708
    },
    {
        "city": "Palatine",
        "latitude": 42.1105779,
        "longitude": -88.0336888
    },
    {
        "city": "Skokie",
        "latitude": 42.0333694,
        "longitude": -87.7333972
    },
    {
        "city": "Des Plaines",
        "latitude": 42.0415823,
        "longitude": -87.8873916
    },
    {
        "city": "Orland Park",
        "latitude": 41.630663,
        "longitude": -87.8536288
    },
    {
        "city": "Tinley Park",
        "latitude": 41.5733669,
        "longitude": -87.7844944
    },
    {
        "city": "Oak Lawn",
        "latitude": 41.7108662,
        "longitude": -87.7581081
    },
    {
        "city": "Berwyn",
        "latitude": 41.8505874,
        "longitude": -87.7936685
    },
    {
        "city": "Mount Prospect",
        "latitude": 42.0664167,
        "longitude": -87.9372908
    },
    {
        "city": "Normal",
        "latitude": 40.5092961,
        "longitude": -88.9843937
    },
    {
        "city": "Wheaton",
        "latitude": 41.8646959,
        "longitude": -88.1101709
    },
    {
        "city": "Hoffman Estates",
        "latitude": 42.0427256,
        "longitude": -88.0792782
    },
    {
        "city": "Oak Park",
        "latitude": 41.8878145,
        "longitude": -87.7887615
    },
    {
        "city": "Downers Grove",
        "latitude": 41.7936822,
        "longitude": -88.0102281
    },
    {
        "city": "Elmhurst",
        "latitude": 41.8994745,
        "longitude": -87.9403418
    },
    {
        "city": "Glenview",
        "latitude": 42.0700662,
        "longitude": -87.8114044
    },
    {
        "city": "DeKalb",
        "latitude": 41.9295371,
        "longitude": -88.7503776
    },
    {
        "city": "Lombard",
        "latitude": 41.8864687,
        "longitude": -88.0201536
    },
    {
        "city": "Belleville",
        "latitude": 38.5200504,
        "longitude": -89.9839935
    },
    {
        "city": "Moline",
        "latitude": 41.5058344,
        "longitude": -90.5136642
    },
    {
        "city": "Buffalo Grove",
        "latitude": 42.1544205,
        "longitude": -87.9589621
    },
    {
        "city": "Bartlett",
        "latitude": 41.9950276,
        "longitude": -88.1856301
    },
    {
        "city": "Urbana",
        "latitude": 40.1117174,
        "longitude": -88.207301
    },
    {
        "city": "Quincy",
        "latitude": 39.9356016,
        "longitude": -91.4098727
    },
    {
        "city": "Crystal Lake",
        "latitude": 42.2411344,
        "longitude": -88.3161965
    },
    {
        "city": "Plainfield",
        "latitude": 41.6086711,
        "longitude": -88.2054345
    },
    {
        "city": "Streamwood",
        "latitude": 42.0255827,
        "longitude": -88.1784085
    },
    {
        "city": "Carol Stream",
        "latitude": 41.9125286,
        "longitude": -88.1347927
    },
    {
        "city": "Romeoville",
        "latitude": 41.6475306,
        "longitude": -88.0895061
    },
    {
        "city": "Rock Island",
        "latitude": 41.5095446,
        "longitude": -90.5792031
    },
    {
        "city": "Hanover Park",
        "latitude": 41.9994722,
        "longitude": -88.1450735
    },
    {
        "city": "Carpentersville",
        "latitude": 42.1211364,
        "longitude": -88.2578582
    },
    {
        "city": "Wheeling",
        "latitude": 42.138889,
        "longitude": -87.9310944
    },
    {
        "city": "Park Ridge",
        "latitude": 42.0112329,
        "longitude": -87.8406031
    },
    {
        "city": "Addison",
        "latitude": 41.931696,
        "longitude": -87.9889556
    },
    {
        "city": "Calumet City",
        "latitude": 41.616016,
        "longitude": -87.5295837
    },
    {
        "city": "Houston",
        "latitude": 29.7589382,
        "longitude": -95.3676974
    },
    {
        "city": "San Antonio",
        "latitude": 29.4246002,
        "longitude": -98.4951405
    },
    {
        "city": "Dallas",
        "latitude": 32.7762719,
        "longitude": -96.7968559
    },
    {
        "city": "Austin",
        "latitude": 30.2711286,
        "longitude": -97.7436995
    },
    {
        "city": "Fort Worth",
        "latitude": 32.753177,
        "longitude": -97.3327459
    },
    {
        "city": "El Paso",
        "latitude": 31.7865623,
        "longitude": -106.441207
    },
    {
        "city": "Arlington",
        "latitude": 32.7355816,
        "longitude": -97.1071186
    },
    {
        "city": "Corpus Christi",
        "latitude": 27.7635302,
        "longitude": -97.4033191
    },
    {
        "city": "Plano",
        "latitude": 33.0136764,
        "longitude": -96.6925096
    },
    {
        "city": "Laredo",
        "latitude": 27.5236998,
        "longitude": -99.497352
    },
    {
        "city": "Lubbock",
        "latitude": 33.5635206,
        "longitude": -101.879336
    },
    {
        "city": "Garland",
        "latitude": 32.912624,
        "longitude": -96.6388833
    },
    {
        "city": "Irving",
        "latitude": 32.8295183,
        "longitude": -96.9442177
    },
    {
        "city": "Amarillo",
        "latitude": 35.2072185,
        "longitude": -101.833824
    },
    {
        "city": "Grand Prairie",
        "latitude": 32.7459645,
        "longitude": -96.9977846
    },
    {
        "city": "Brownsville",
        "latitude": 25.9140277,
        "longitude": -97.4890879
    },
    {
        "city": "Pasadena",
        "latitude": 29.6910753,
        "longitude": -95.2092076
    },
    {
        "city": "McKinney",
        "latitude": 33.1976496,
        "longitude": -96.6154471
    },
    {
        "city": "Mesquite",
        "latitude": 32.7666103,
        "longitude": -96.599472
    },
    {
        "city": "McAllen",
        "latitude": 26.204114,
        "longitude": -98.2300605
    },
    {
        "city": "Killeen",
        "latitude": 31.1171441,
        "longitude": -97.727796
    },
    {
        "city": "Frisco",
        "latitude": 33.1506744,
        "longitude": -96.8236116
    },
    {
        "city": "Waco",
        "latitude": 31.549333,
        "longitude": -97.1466695
    },
    {
        "city": "Carrollton",
        "latitude": 32.9537349,
        "longitude": -96.8902816
    },
    {
        "city": "Denton",
        "latitude": 33.2150386,
        "longitude": -97.1330516
    },
    {
        "city": "Midland",
        "latitude": 31.9973662,
        "longitude": -102.077948
    },
    {
        "city": "Abilene",
        "latitude": 32.44645,
        "longitude": -99.7475905
    },
    {
        "city": "Beaumont",
        "latitude": 30.0860459,
        "longitude": -94.1018461
    },
    {
        "city": "Round Rock",
        "latitude": 30.5085915,
        "longitude": -97.6788056
    },
    {
        "city": "Odessa",
        "latitude": 31.8457149,
        "longitude": -102.367687
    },
    {
        "city": "Wichita Falls",
        "latitude": 33.9004572,
        "longitude": -98.5020777
    },
    {
        "city": "Richardson",
        "latitude": 32.9481789,
        "longitude": -96.7297206
    },
    {
        "city": "Lewisville",
        "latitude": 33.046233,
        "longitude": -96.994174
    },
    {
        "city": "Tyler",
        "latitude": 32.3512601,
        "longitude": -95.3010624
    },
    {
        "city": "College Station",
        "latitude": 30.5955289,
        "longitude": -96.3071042
    },
    {
        "city": "Pearland",
        "latitude": 29.5639758,
        "longitude": -95.2864299
    },
    {
        "city": "San Angelo",
        "latitude": 31.4649685,
        "longitude": -100.4405094
    },
    {
        "city": "Allen",
        "latitude": 33.1031744,
        "longitude": -96.6705503
    },
    {
        "city": "League City",
        "latitude": 29.5074538,
        "longitude": -95.0949303
    },
    {
        "city": "Sugar Land",
        "latitude": 29.6196787,
        "longitude": -95.6349463
    },
    {
        "city": "Longview",
        "latitude": 32.5007031,
        "longitude": -94.74049
    },
    {
        "city": "Edinburg",
        "latitude": 26.3013982,
        "longitude": -98.1624501
    },
    {
        "city": "Mission",
        "latitude": 26.2159066,
        "longitude": -98.3252932
    },
    {
        "city": "Bryan",
        "latitude": 30.6743643,
        "longitude": -96.3699632
    },
    {
        "city": "Baytown",
        "latitude": 29.7355047,
        "longitude": -94.9774274
    },
    {
        "city": "Pharr",
        "latitude": 26.1947962,
        "longitude": -98.1836216
    },
    {
        "city": "Temple",
        "latitude": 31.098207,
        "longitude": -97.3427847
    },
    {
        "city": "Missouri City",
        "latitude": 29.6185669,
        "longitude": -95.5377215
    },
    {
        "city": "Flower Mound",
        "latitude": 33.0283854,
        "longitude": -97.0867203
    },
    {
        "city": "Harlingen",
        "latitude": 26.1907543,
        "longitude": -97.6960599
    },
    {
        "city": "North Richland Hills",
        "latitude": 32.8342952,
        "longitude": -97.2289029
    },
    {
        "city": "Victoria",
        "latitude": 28.8202926,
        "longitude": -96.9848646
    },
    {
        "city": "Conroe",
        "latitude": 30.3118769,
        "longitude": -95.4560512
    },
    {
        "city": "New Braunfels",
        "latitude": 29.7028266,
        "longitude": -98.1257348
    },
    {
        "city": "Mansfield",
        "latitude": 32.5631924,
        "longitude": -97.1416768
    },
    {
        "city": "Cedar Park",
        "latitude": 30.5217116,
        "longitude": -97.827833
    },
    {
        "city": "Rowlett",
        "latitude": 32.9029017,
        "longitude": -96.56388
    },
    {
        "city": "Port Arthur",
        "latitude": 29.8716717,
        "longitude": -93.9333107
    },
    {
        "city": "Euless",
        "latitude": 32.8457865,
        "longitude": -97.0667142473263
    },
    {
        "city": "Georgetown",
        "latitude": 30.6326942,
        "longitude": -97.6772311
    },
    {
        "city": "Pflugerville",
        "latitude": 30.4393696,
        "longitude": -97.6200043
    },
    {
        "city": "DeSoto",
        "latitude": 32.5897831,
        "longitude": -96.8570183
    },
    {
        "city": "San Marcos",
        "latitude": 29.8826436,
        "longitude": -97.9405828
    },
    {
        "city": "Grapevine",
        "latitude": 32.9337381,
        "longitude": -97.0788754
    },
    {
        "city": "Bedford",
        "latitude": 32.844017,
        "longitude": -97.1430671
    },
    {
        "city": "Galveston",
        "latitude": 29.299328,
        "longitude": -94.7945882
    },
    {
        "city": "Cedar Hill",
        "latitude": 32.5888072,
        "longitude": -96.9553675
    },
    {
        "city": "Texas City",
        "latitude": 29.396013,
        "longitude": -94.9175485
    },
    {
        "city": "Wylie",
        "latitude": 33.0151561,
        "longitude": -96.5388038
    },
    {
        "city": "Haltom City",
        "latitude": 32.7995738,
        "longitude": -97.2691817
    },
    {
        "city": "Keller",
        "latitude": 32.9299655,
        "longitude": -97.2271249
    },
    {
        "city": "Coppell",
        "latitude": 32.9552598,
        "longitude": -97.0155703
    },
    {
        "city": "Rockwall",
        "latitude": 32.9312336,
        "longitude": -96.4597089
    },
    {
        "city": "Huntsville",
        "latitude": 30.7235263,
        "longitude": -95.5507771
    },
    {
        "city": "Duncanville",
        "latitude": 32.6518004,
        "longitude": -96.9083366
    },
    {
        "city": "Sherman",
        "latitude": 33.6398609,
        "longitude": -96.6089146
    },
    {
        "city": "The Colony",
        "latitude": 33.0890094,
        "longitude": -96.8863922
    },
    {
        "city": "Burleson",
        "latitude": 32.5420821,
        "longitude": -97.3208492
    },
    {
        "city": "Hurst",
        "latitude": 32.8234621,
        "longitude": -97.1705678
    },
    {
        "city": "Lancaster",
        "latitude": 32.5920798,
        "longitude": -96.7561083
    },
    {
        "city": "Texarkana",
        "latitude": 33.44667445,
        "longitude": -94.07714830522015
    },
    {
        "city": "Friendswood",
        "latitude": 29.5293998,
        "longitude": -95.2010447
    },
    {
        "city": "Weslaco",
        "latitude": 26.1594305,
        "longitude": -97.9907362
    },
    {
        "city": "Philadelphia",
        "latitude": 39.9527237,
        "longitude": -75.1635262
    },
    {
        "city": "Pittsburgh",
        "latitude": 40.4416941,
        "longitude": -79.9900861
    },
    {
        "city": "Allentown",
        "latitude": 40.6022059,
        "longitude": -75.4712794
    },
    {
        "city": "Erie",
        "latitude": 42.1294712,
        "longitude": -80.0852695
    },
    {
        "city": "Reading",
        "latitude": 40.335345,
        "longitude": -75.9279495
    },
    {
        "city": "Scranton",
        "latitude": 41.4086874,
        "longitude": -75.6621294
    },
    {
        "city": "Bethlehem",
        "latitude": 40.6178915,
        "longitude": -75.3786521
    },
    {
        "city": "Lancaster",
        "latitude": 40.03813,
        "longitude": -76.3056686
    },
    {
        "city": "Harrisburg",
        "latitude": 40.2663107,
        "longitude": -76.8861122
    },
    {
        "city": "Altoona",
        "latitude": 40.518681,
        "longitude": -78.394736
    },
    {
        "city": "York",
        "latitude": 39.9624624,
        "longitude": -76.727707
    },
    {
        "city": "State College",
        "latitude": 40.7944504,
        "longitude": -77.8616386
    },
    {
        "city": "Wilkes-Barre",
        "latitude": 41.2464824,
        "longitude": -75.8817316
    },
    {
        "city": "Phoenix",
        "latitude": 33.4484367,
        "longitude": -112.074141
    },
    {
        "city": "Tucson",
        "latitude": 32.2228765,
        "longitude": -110.9748477
    },
    {
        "city": "Mesa",
        "latitude": 33.4151117,
        "longitude": -111.8314792
    },
    {
        "city": "Chandler",
        "latitude": 33.3062031,
        "longitude": -111.8411851
    },
    {
        "city": "Glendale",
        "latitude": 33.5386858,
        "longitude": -112.1859941
    },
    {
        "city": "Scottsdale",
        "latitude": 33.4942189,
        "longitude": -111.9260184
    },
    {
        "city": "Gilbert",
        "latitude": 33.3527632,
        "longitude": -111.789037
    },
    {
        "city": "Tempe",
        "latitude": 33.4255056,
        "longitude": -111.9400091
    },
    {
        "city": "Peoria",
        "latitude": 33.5806115,
        "longitude": -112.237294
    },
    {
        "city": "Surprise",
        "latitude": 33.6292271,
        "longitude": -112.3680189
    },
    {
        "city": "Yuma",
        "latitude": 32.6926543,
        "longitude": -114.6275386
    },
    {
        "city": "Avondale",
        "latitude": 33.4355977,
        "longitude": -112.349602
    },
    {
        "city": "Goodyear",
        "latitude": 33.4073522,
        "longitude": -112.3934809
    },
    {
        "city": "Flagstaff",
        "latitude": 35.1987522,
        "longitude": -111.6518229
    },
    {
        "city": "Buckeye",
        "latitude": 33.3703197,
        "longitude": -112.583776
    },
    {
        "city": "Lake Havasu City",
        "latitude": 34.4838502,
        "longitude": -114.3224495
    },
    {
        "city": "Casa Grande",
        "latitude": 32.8795266,
        "longitude": -111.757311
    },
    {
        "city": "Sierra Vista",
        "latitude": 31.5545973,
        "longitude": -110.2997756
    },
    {
        "city": "Maricopa",
        "latitude": 33.058129,
        "longitude": -112.047755
    },
    {
        "city": "Oro Valley",
        "latitude": 32.4000525,
        "longitude": -110.955317
    },
    {
        "city": "Prescott",
        "latitude": 34.5399962,
        "longitude": -112.468761
    },
    {
        "city": "Bullhead City",
        "latitude": 35.1477774,
        "longitude": -114.568298
    },
    {
        "city": "Prescott Valley",
        "latitude": 34.6100243,
        "longitude": -112.315721
    },
    {
        "city": "Marana",
        "latitude": 32.4483736,
        "longitude": -111.211475
    },
    {
        "city": "Apache Junction",
        "latitude": 33.375717300000005,
        "longitude": -111.53042915896151
    },
    {
        "city": "Jacksonville",
        "latitude": 30.3321838,
        "longitude": -81.655651
    },
    {
        "city": "Miami",
        "latitude": 25.7741728,
        "longitude": -80.19362
    },
    {
        "city": "Tampa",
        "latitude": 27.9477595,
        "longitude": -82.458444
    },
    {
        "city": "Orlando",
        "latitude": 28.5421109,
        "longitude": -81.3790304
    },
    {
        "city": "St. Petersburg",
        "latitude": 27.7703796,
        "longitude": -82.6695085
    },
    {
        "city": "Hialeah",
        "latitude": 25.8575963,
        "longitude": -80.2781057
    },
    {
        "city": "Tallahassee",
        "latitude": 30.4380832,
        "longitude": -84.2809332
    },
    {
        "city": "Fort Lauderdale",
        "latitude": 26.1223084,
        "longitude": -80.1433786
    },
    {
        "city": "Port St. Lucie",
        "latitude": 27.2939333,
        "longitude": -80.3503283
    },
    {
        "city": "Cape Coral",
        "latitude": 26.6059432,
        "longitude": -81.9806771
    },
    {
        "city": "Pembroke Pines",
        "latitude": 26.0061943,
        "longitude": -80.2872086
    },
    {
        "city": "Hollywood",
        "latitude": 26.0112014,
        "longitude": -80.1494901
    },
    {
        "city": "Miramar",
        "latitude": 25.9873137,
        "longitude": -80.2322706
    },
    {
        "city": "Gainesville",
        "latitude": 29.6519684,
        "longitude": -82.3249846
    },
    {
        "city": "Coral Springs",
        "latitude": 26.271192,
        "longitude": -80.2706044
    },
    {
        "city": "Miami Gardens",
        "latitude": 25.9420377,
        "longitude": -80.2456045
    },
    {
        "city": "Clearwater",
        "latitude": 27.9658533,
        "longitude": -82.8001026
    },
    {
        "city": "Palm Bay",
        "latitude": 27.9946969,
        "longitude": -80.6366144
    },
    {
        "city": "Pompano Beach",
        "latitude": 26.2378597,
        "longitude": -80.1247667
    },
    {
        "city": "West Palm Beach",
        "latitude": 26.715364,
        "longitude": -80.0532942
    },
    {
        "city": "Lakeland",
        "latitude": 28.0394654,
        "longitude": -81.9498042
    },
    {
        "city": "Davie",
        "latitude": 26.07441465,
        "longitude": -80.28402569275804
    },
    {
        "city": "Miami Beach",
        "latitude": 25.7929198,
        "longitude": -80.1353006
    },
    {
        "city": "Sunrise",
        "latitude": 26.1666888,
        "longitude": -80.2787573
    },
    {
        "city": "Plantation",
        "latitude": 26.12744855,
        "longitude": -80.25779069425029
    },
    {
        "city": "Boca Raton",
        "latitude": 26.3586885,
        "longitude": -80.0830984
    },
    {
        "city": "Deltona",
        "latitude": 28.9005446,
        "longitude": -81.2636738
    },
    {
        "city": "Largo",
        "latitude": 27.9094665,
        "longitude": -82.7873244
    },
    {
        "city": "Deerfield Beach",
        "latitude": 26.318342,
        "longitude": -80.0996306
    },
    {
        "city": "Palm Coast",
        "latitude": 29.5541432,
        "longitude": -81.2207673
    },
    {
        "city": "Melbourne",
        "latitude": 28.106471,
        "longitude": -80.6371513
    },
    {
        "city": "Boynton Beach",
        "latitude": 26.5256179,
        "longitude": -80.0666026
    },
    {
        "city": "Lauderhill",
        "latitude": 26.157597600000003,
        "longitude": -80.22537761054471
    },
    {
        "city": "Weston",
        "latitude": 26.1003392,
        "longitude": -80.399513
    },
    {
        "city": "Fort Myers",
        "latitude": 26.640628,
        "longitude": -81.8723084
    },
    {
        "city": "Kissimmee",
        "latitude": 28.2918995,
        "longitude": -81.4075838
    },
    {
        "city": "Homestead",
        "latitude": 25.4718946,
        "longitude": -80.4759905
    },
    {
        "city": "Tamarac",
        "latitude": 26.2048464,
        "longitude": -80.27080479659301
    },
    {
        "city": "Delray Beach",
        "latitude": 26.4614625,
        "longitude": -80.0728201
    },
    {
        "city": "Daytona Beach",
        "latitude": 29.2108147,
        "longitude": -81.0228331
    },
    {
        "city": "North Miami",
        "latitude": 25.90560775,
        "longitude": -80.17506955013091
    },
    {
        "city": "Wellington",
        "latitude": 26.6586779,
        "longitude": -80.2414357
    },
    {
        "city": "North Port",
        "latitude": 27.044224,
        "longitude": -82.2359254
    },
    {
        "city": "Jupiter",
        "latitude": 26.9342246,
        "longitude": -80.0942087
    },
    {
        "city": "Ocala",
        "latitude": 29.1871986,
        "longitude": -82.1400923
    },
    {
        "city": "Port Orange",
        "latitude": 29.101628050000002,
        "longitude": -81.01059617608054
    },
    {
        "city": "Margate",
        "latitude": 26.2445263,
        "longitude": -80.206436
    },
    {
        "city": "Coconut Creek",
        "latitude": 26.271462800000002,
        "longitude": -80.18181396580121
    },
    {
        "city": "Sanford",
        "latitude": 28.8117345,
        "longitude": -81.2680223
    },
    {
        "city": "Sarasota",
        "latitude": 27.3365805,
        "longitude": -82.5308545
    },
    {
        "city": "Pensacola",
        "latitude": 30.421309,
        "longitude": -87.2169149
    },
    {
        "city": "Bradenton",
        "latitude": 27.4989278,
        "longitude": -82.5748194
    },
    {
        "city": "Palm Beach Gardens",
        "latitude": 26.8233946,
        "longitude": -80.1386547
    },
    {
        "city": "Pinellas Park",
        "latitude": 27.8428025,
        "longitude": -82.6995444
    },
    {
        "city": "Coral Gables",
        "latitude": 25.72149,
        "longitude": -80.2683838
    },
    {
        "city": "Doral",
        "latitude": 25.8184725,
        "longitude": -80.35396791309786
    },
    {
        "city": "Bonita Springs",
        "latitude": 26.339806,
        "longitude": -81.7786972
    },
    {
        "city": "Apopka",
        "latitude": 28.6779683,
        "longitude": -81.5115214
    },
    {
        "city": "Titusville",
        "latitude": 28.6122187,
        "longitude": -80.8075538
    },
    {
        "city": "North Miami Beach",
        "latitude": 25.9331488,
        "longitude": -80.1625463
    },
    {
        "city": "Oakland Park",
        "latitude": 26.1723065,
        "longitude": -80.1319893
    },
    {
        "city": "Fort Pierce",
        "latitude": 27.4467056,
        "longitude": -80.3256056
    },
    {
        "city": "North Lauderdale",
        "latitude": 26.217305,
        "longitude": -80.2258811
    },
    {
        "city": "Cutler Bay",
        "latitude": 25.5783,
        "longitude": -80.3377
    },
    {
        "city": "Altamonte Springs",
        "latitude": 28.6619154,
        "longitude": -81.3885899
    },
    {
        "city": "St. Cloud",
        "latitude": 28.2498534,
        "longitude": -81.2839038
    },
    {
        "city": "Greenacres",
        "latitude": 26.623679,
        "longitude": -80.1253213
    },
    {
        "city": "Ormond Beach",
        "latitude": 29.2854132,
        "longitude": -81.0557921
    },
    {
        "city": "Ocoee",
        "latitude": 28.5695186,
        "longitude": -81.544117
    },
    {
        "city": "Hallandale Beach",
        "latitude": 25.98584285,
        "longitude": -80.14118350866113
    },
    {
        "city": "Winter Garden",
        "latitude": 28.5656649,
        "longitude": -81.5856742
    },
    {
        "city": "Aventura",
        "latitude": 25.9564812,
        "longitude": -80.1392121
    },
    {
        "city": "Indianapolis",
        "latitude": 39.7683331,
        "longitude": -86.1583502
    },
    {
        "city": "Fort Wayne",
        "latitude": 41.0799898,
        "longitude": -85.1386015
    },
    {
        "city": "Evansville",
        "latitude": 37.9747645,
        "longitude": -87.5558483
    },
    {
        "city": "South Bend",
        "latitude": 41.6833813,
        "longitude": -86.2500066
    },
    {
        "city": "Carmel",
        "latitude": 39.9788017,
        "longitude": -86.1189257
    },
    {
        "city": "Bloomington",
        "latitude": 39.1670396,
        "longitude": -86.5342881
    },
    {
        "city": "Fishers",
        "latitude": 39.9555928,
        "longitude": -86.0138729
    },
    {
        "city": "Hammond",
        "latitude": 41.5833658,
        "longitude": -87.500043
    },
    {
        "city": "Gary",
        "latitude": 41.6020962,
        "longitude": -87.3370647
    },
    {
        "city": "Muncie",
        "latitude": 40.1936892,
        "longitude": -85.3865271
    },
    {
        "city": "Lafayette",
        "latitude": 40.4167022,
        "longitude": -86.8752869
    },
    {
        "city": "Terre Haute",
        "latitude": 39.4667025,
        "longitude": -87.4139119
    },
    {
        "city": "Kokomo",
        "latitude": 40.4864444,
        "longitude": -86.1336351
    },
    {
        "city": "Anderson",
        "latitude": 40.1053196,
        "longitude": -85.6802541
    },
    {
        "city": "Noblesville",
        "latitude": 40.0455918,
        "longitude": -86.0085955
    },
    {
        "city": "Greenwood",
        "latitude": 39.6136578,
        "longitude": -86.1066526
    },
    {
        "city": "Elkhart",
        "latitude": 41.6819935,
        "longitude": -85.9766671
    },
    {
        "city": "Mishawaka",
        "latitude": 41.6611642,
        "longitude": -86.1807031
    },
    {
        "city": "Lawrence",
        "latitude": 39.8386516,
        "longitude": -86.0252612
    },
    {
        "city": "Jeffersonville",
        "latitude": 38.2770227,
        "longitude": -85.7371604
    },
    {
        "city": "Columbus",
        "latitude": 39.2014405,
        "longitude": -85.9213796
    },
    {
        "city": "Portage",
        "latitude": 41.5758708,
        "longitude": -87.1761455
    },
    {
        "city": "Columbus",
        "latitude": 39.9622601,
        "longitude": -83.0007065
    },
    {
        "city": "Cleveland",
        "latitude": 41.4996574,
        "longitude": -81.6936772
    },
    {
        "city": "Cincinnati",
        "latitude": 39.1014537,
        "longitude": -84.5124602
    },
    {
        "city": "Toledo",
        "latitude": 41.6529143,
        "longitude": -83.5378173
    },
    {
        "city": "Akron",
        "latitude": 41.083064,
        "longitude": -81.518485
    },
    {
        "city": "Dayton",
        "latitude": 39.7589478,
        "longitude": -84.1916069
    },
    {
        "city": "Parma",
        "latitude": 41.3822398,
        "longitude": -81.7355692
    },
    {
        "city": "Canton",
        "latitude": 40.7985464,
        "longitude": -81.3749508
    },
    {
        "city": "Youngstown",
        "latitude": 41.1035786,
        "longitude": -80.6520161
    },
    {
        "city": "Lorain",
        "latitude": 41.4673238,
        "longitude": -82.1781904
    },
    {
        "city": "Hamilton",
        "latitude": 39.3995067,
        "longitude": -84.5613428
    },
    {
        "city": "Springfield",
        "latitude": 39.9234046,
        "longitude": -83.810138
    },
    {
        "city": "Kettering",
        "latitude": 39.6895036,
        "longitude": -84.1688274
    },
    {
        "city": "Elyria",
        "latitude": 41.3673191,
        "longitude": -82.1073583
    },
    {
        "city": "Lakewood",
        "latitude": 41.4819932,
        "longitude": -81.7981908
    },
    {
        "city": "Cuyahoga Falls",
        "latitude": 41.1362729,
        "longitude": -81.4828123
    },
    {
        "city": "Middletown",
        "latitude": 39.516644,
        "longitude": -84.4041725
    },
    {
        "city": "Euclid",
        "latitude": 41.5931049,
        "longitude": -81.5267873
    },
    {
        "city": "Newark",
        "latitude": 40.0581205,
        "longitude": -82.4012643
    },
    {
        "city": "Mansfield",
        "latitude": 40.75839,
        "longitude": -82.5154471
    },
    {
        "city": "Mentor",
        "latitude": 41.6664781,
        "longitude": -81.3399769
    },
    {
        "city": "Beavercreek",
        "latitude": 39.7092262,
        "longitude": -84.0632685
    },
    {
        "city": "Cleveland Heights",
        "latitude": 41.5200518,
        "longitude": -81.556235
    },
    {
        "city": "Strongsville",
        "latitude": 41.3144733,
        "longitude": -81.83511
    },
    {
        "city": "Dublin",
        "latitude": 40.0992294,
        "longitude": -83.1140771
    },
    {
        "city": "Fairfield",
        "latitude": 39.3458953,
        "longitude": -84.5605031
    },
    {
        "city": "Findlay",
        "latitude": 41.0413873,
        "longitude": -83.6503982
    },
    {
        "city": "Warren",
        "latitude": 41.237557,
        "longitude": -80.818417
    },
    {
        "city": "Lancaster",
        "latitude": 39.7136754,
        "longitude": -82.5993294
    },
    {
        "city": "Lima",
        "latitude": 40.7399785,
        "longitude": -84.105006
    },
    {
        "city": "Huber Heights",
        "latitude": 39.85902405,
        "longitude": -84.11141951604947
    },
    {
        "city": "Westerville",
        "latitude": 40.126139,
        "longitude": -82.9295287
    },
    {
        "city": "Marion",
        "latitude": 40.5886259,
        "longitude": -83.1287349
    },
    {
        "city": "Grove City",
        "latitude": 39.8814519,
        "longitude": -83.0929645
    },
    {
        "city": "Charlotte",
        "latitude": 35.2272086,
        "longitude": -80.8430827
    },
    {
        "city": "Raleigh",
        "latitude": 35.7803977,
        "longitude": -78.6390989
    },
    {
        "city": "Greensboro",
        "latitude": 36.0726355,
        "longitude": -79.7919754
    },
    {
        "city": "Durham",
        "latitude": 35.996653,
        "longitude": -78.9018053
    },
    {
        "city": "Winston-Salem",
        "latitude": 36.0998131,
        "longitude": -80.2440518
    },
    {
        "city": "Fayetteville",
        "latitude": 35.0525759,
        "longitude": -78.878292
    },
    {
        "city": "Cary",
        "latitude": 35.7882893,
        "longitude": -78.7812081
    },
    {
        "city": "Wilmington",
        "latitude": 34.2257282,
        "longitude": -77.9447107
    },
    {
        "city": "High Point",
        "latitude": 35.9556924,
        "longitude": -80.0053176
    },
    {
        "city": "Greenville",
        "latitude": 35.613224,
        "longitude": -77.3724593
    },
    {
        "city": "Asheville",
        "latitude": 35.6009498,
        "longitude": -82.5540161
    },
    {
        "city": "Concord",
        "latitude": 35.4094178,
        "longitude": -80.5800049
    },
    {
        "city": "Gastonia",
        "latitude": 35.2622654,
        "longitude": -81.1838186
    },
    {
        "city": "Jacksonville",
        "latitude": 34.7494749,
        "longitude": -77.4208221
    },
    {
        "city": "Chapel Hill",
        "latitude": 35.9131542,
        "longitude": -79.05578
    },
    {
        "city": "Rocky Mount",
        "latitude": 35.9423833,
        "longitude": -77.7956949
    },
    {
        "city": "Burlington",
        "latitude": 36.0956918,
        "longitude": -79.4377991
    },
    {
        "city": "Wilson",
        "latitude": 35.7212689,
        "longitude": -77.9155395
    },
    {
        "city": "Huntersville",
        "latitude": 35.4108278,
        "longitude": -80.8429304
    },
    {
        "city": "Kannapolis",
        "latitude": 35.4874708,
        "longitude": -80.621438
    },
    {
        "city": "Apex",
        "latitude": 35.7325352,
        "longitude": -78.8505516
    },
    {
        "city": "Hickory",
        "latitude": 35.7333312,
        "longitude": -81.3442915
    },
    {
        "city": "Goldsboro",
        "latitude": 35.3848841,
        "longitude": -77.9927651
    },
    {
        "city": "Detroit",
        "latitude": 42.3315509,
        "longitude": -83.0466403
    },
    {
        "city": "Grand Rapids",
        "latitude": 42.9632405,
        "longitude": -85.6678639
    },
    {
        "city": "Warren",
        "latitude": 42.4932575,
        "longitude": -83.0062746
    },
    {
        "city": "Sterling Heights",
        "latitude": 42.5803122,
        "longitude": -83.0302033
    },
    {
        "city": "Ann Arbor",
        "latitude": 42.2681569,
        "longitude": -83.7312291
    },
    {
        "city": "Lansing",
        "latitude": 42.7337712,
        "longitude": -84.5553805
    },
    {
        "city": "Flint",
        "latitude": 43.0161693,
        "longitude": -83.6900211
    },
    {
        "city": "Dearborn",
        "latitude": 42.3222599,
        "longitude": -83.1763145
    },
    {
        "city": "Livonia",
        "latitude": 42.36837,
        "longitude": -83.3527097
    },
    {
        "city": "Westland",
        "latitude": 42.3238056,
        "longitude": -83.4005321
    },
    {
        "city": "Troy",
        "latitude": 42.6055893,
        "longitude": -83.1499304
    },
    {
        "city": "Farmington Hills",
        "latitude": 42.4853125,
        "longitude": -83.3771553
    },
    {
        "city": "Kalamazoo",
        "latitude": 42.291707,
        "longitude": -85.5872286
    },
    {
        "city": "Wyoming",
        "latitude": 42.9132581,
        "longitude": -85.7057035
    },
    {
        "city": "Southfield",
        "latitude": 42.4733689,
        "longitude": -83.2218731
    },
    {
        "city": "Rochester Hills",
        "latitude": 42.6583661,
        "longitude": -83.1499322
    },
    {
        "city": "Taylor",
        "latitude": 42.240872,
        "longitude": -83.2696509
    },
    {
        "city": "Pontiac",
        "latitude": 42.6389216,
        "longitude": -83.2910468
    },
    {
        "city": "St. Clair Shores",
        "latitude": 42.4969652,
        "longitude": -82.8890965
    },
    {
        "city": "Royal Oak",
        "latitude": 42.4894801,
        "longitude": -83.1446485
    },
    {
        "city": "Novi",
        "latitude": 42.48059,
        "longitude": -83.4754913
    },
    {
        "city": "Dearborn Heights",
        "latitude": 42.3369816,
        "longitude": -83.2732627
    },
    {
        "city": "Battle Creek",
        "latitude": 42.3192548,
        "longitude": -85.1824269
    },
    {
        "city": "Saginaw",
        "latitude": 43.4200387,
        "longitude": -83.9490365
    },
    {
        "city": "Kentwood",
        "latitude": 42.8694731,
        "longitude": -85.6447492
    },
    {
        "city": "East Lansing",
        "latitude": 42.7320307,
        "longitude": -84.4721678
    },
    {
        "city": "Roseville",
        "latitude": 42.4972583,
        "longitude": -82.9371409
    },
    {
        "city": "Portage",
        "latitude": 42.2011538,
        "longitude": -85.5800022
    },
    {
        "city": "Midland",
        "latitude": 43.6155825,
        "longitude": -84.2472117
    },
    {
        "city": "Lincoln Park",
        "latitude": 42.2505943,
        "longitude": -83.1785361
    },
    {
        "city": "Muskegon",
        "latitude": 43.2341813,
        "longitude": -86.2483921
    },
    {
        "city": "Memphis",
        "latitude": 35.1335022,
        "longitude": -89.9668758
    },
    {
        "city": "Nashville-Davidson",
        "latitude": 36.1622767,
        "longitude": -86.7742984
    },
    {
        "city": "Knoxville",
        "latitude": 35.9603948,
        "longitude": -83.9210261
    },
    {
        "city": "Chattanooga",
        "latitude": 35.0457219,
        "longitude": -85.3094883
    },
    {
        "city": "Clarksville",
        "latitude": 36.5277607,
        "longitude": -87.3588703
    },
    {
        "city": "Murfreesboro",
        "latitude": 35.8460396,
        "longitude": -86.3921096
    },
    {
        "city": "Jackson",
        "latitude": 35.6144446,
        "longitude": -88.8177418
    },
    {
        "city": "Franklin",
        "latitude": 35.925206,
        "longitude": -86.8689419
    },
    {
        "city": "Johnson City",
        "latitude": 36.3134398,
        "longitude": -82.3534728
    },
    {
        "city": "Bartlett",
        "latitude": 35.2045329,
        "longitude": -89.8739753
    },
    {
        "city": "Hendersonville",
        "latitude": 36.3049177,
        "longitude": -86.621443
    },
    {
        "city": "Kingsport",
        "latitude": 36.550238,
        "longitude": -82.5594293
    },
    {
        "city": "Collierville",
        "latitude": 35.042036,
        "longitude": -89.6645266
    },
    {
        "city": "Cleveland",
        "latitude": 35.1595182,
        "longitude": -84.8766115
    },
    {
        "city": "Smyrna",
        "latitude": 35.9824598,
        "longitude": -86.5199492
    },
    {
        "city": "Germantown",
        "latitude": 35.0867577,
        "longitude": -89.8100858
    },
    {
        "city": "Brentwood",
        "latitude": 36.0325687,
        "longitude": -86.7825235
    },
    {
        "city": "Boston",
        "latitude": 42.3554334,
        "longitude": -71.060511
    },
    {
        "city": "Worcester",
        "latitude": 42.2625621,
        "longitude": -71.8018877
    },
    {
        "city": "Springfield",
        "latitude": 42.1018764,
        "longitude": -72.5886727
    },
    {
        "city": "Lowell",
        "latitude": 42.6414437,
        "longitude": -71.3085329
    },
    {
        "city": "Cambridge",
        "latitude": 42.3750997,
        "longitude": -71.1056157
    },
    {
        "city": "New Bedford",
        "latitude": 41.6362152,
        "longitude": -70.934205
    },
    {
        "city": "Brockton",
        "latitude": 42.0834335,
        "longitude": -71.0183787
    },
    {
        "city": "Quincy",
        "latitude": 42.2509914,
        "longitude": -71.0037374
    },
    {
        "city": "Lynn",
        "latitude": 42.466763,
        "longitude": -70.9494939
    },
    {
        "city": "Fall River",
        "latitude": 41.7010642,
        "longitude": -71.1546367
    },
    {
        "city": "Newton",
        "latitude": 42.3370414,
        "longitude": -71.2092214
    },
    {
        "city": "Lawrence",
        "latitude": 42.7070354,
        "longitude": -71.1631137
    },
    {
        "city": "Somerville",
        "latitude": 42.3875968,
        "longitude": -71.0994968
    },
    {
        "city": "Waltham",
        "latitude": 42.3756401,
        "longitude": -71.2358004
    },
    {
        "city": "Haverhill",
        "latitude": 42.7777829,
        "longitude": -71.0767724
    },
    {
        "city": "Malden",
        "latitude": 42.4250964,
        "longitude": -71.066163
    },
    {
        "city": "Medford",
        "latitude": 42.4184296,
        "longitude": -71.1061639
    },
    {
        "city": "Taunton",
        "latitude": 41.9019257,
        "longitude": -71.0931485
    },
    {
        "city": "Chicopee",
        "latitude": 42.1487691,
        "longitude": -72.6071119
    },
    {
        "city": "Revere",
        "latitude": 42.4084302,
        "longitude": -71.0119948
    },
    {
        "city": "Peabody",
        "latitude": 42.5278731,
        "longitude": -70.9286609
    },
    {
        "city": "Methuen",
        "latitude": 42.7262016,
        "longitude": -71.1908924
    },
    {
        "city": "Pittsfield",
        "latitude": 42.451302,
        "longitude": -73.260018
    },
    {
        "city": "Attleboro",
        "latitude": 41.9438129,
        "longitude": -71.2806515
    },
    {
        "city": "Everett",
        "latitude": 42.40843,
        "longitude": -71.0536625
    },
    {
        "city": "Salem",
        "latitude": 42.5195292,
        "longitude": -70.8967226
    },
    {
        "city": "Westfield",
        "latitude": 42.1205411,
        "longitude": -72.7489158
    },
    {
        "city": "Leominster",
        "latitude": 42.5267443,
        "longitude": -71.7614891
    },
    {
        "city": "Fitchburg",
        "latitude": 42.5854371,
        "longitude": -71.8046023
    },
    {
        "city": "Beverly",
        "latitude": 42.5584284,
        "longitude": -70.8800491
    },
    {
        "city": "Holyoke",
        "latitude": 42.2071434,
        "longitude": -72.60765
    },
    {
        "city": "Marlborough",
        "latitude": 42.3459271,
        "longitude": -71.5522874
    },
    {
        "city": "Woburn",
        "latitude": 42.4792618,
        "longitude": -71.1522766
    },
    {
        "city": "Chelsea",
        "latitude": 42.3917638,
        "longitude": -71.0328284
    },
    {
        "city": "Seattle",
        "latitude": 47.6038321,
        "longitude": -122.330062
    },
    {
        "city": "Spokane",
        "latitude": 47.6571934,
        "longitude": -117.42351
    },
    {
        "city": "Tacoma",
        "latitude": 47.2455013,
        "longitude": -122.438329
    },
    {
        "city": "Vancouver",
        "latitude": 45.6306954,
        "longitude": -122.6744557
    },
    {
        "city": "Bellevue",
        "latitude": 47.6144219,
        "longitude": -122.192337
    },
    {
        "city": "Kent",
        "latitude": 47.3826903,
        "longitude": -122.2270272
    },
    {
        "city": "Everett",
        "latitude": 47.9673056,
        "longitude": -122.201399
    },
    {
        "city": "Renton",
        "latitude": 47.4799078,
        "longitude": -122.2034496
    },
    {
        "city": "Yakima",
        "latitude": 46.601557,
        "longitude": -120.510842
    },
    {
        "city": "Federal Way",
        "latitude": 47.313494,
        "longitude": -122.33931
    },
    {
        "city": "Spokane Valley",
        "latitude": 47.6571104,
        "longitude": -117.2613936
    },
    {
        "city": "Bellingham",
        "latitude": 48.7544012,
        "longitude": -122.478836
    },
    {
        "city": "Kennewick",
        "latitude": 46.2087066,
        "longitude": -119.119919
    },
    {
        "city": "Auburn",
        "latitude": 47.3075369,
        "longitude": -122.2301808
    },
    {
        "city": "Pasco",
        "latitude": 46.2306739,
        "longitude": -119.0921
    },
    {
        "city": "Marysville",
        "latitude": 48.0517429,
        "longitude": -122.1768209
    },
    {
        "city": "Lakewood",
        "latitude": 47.1717649,
        "longitude": -122.518458
    },
    {
        "city": "Redmond",
        "latitude": 47.6694141,
        "longitude": -122.1238767
    },
    {
        "city": "Shoreline",
        "latitude": 47.7564667,
        "longitude": -122.3437497
    },
    {
        "city": "Richland",
        "latitude": 46.2804298,
        "longitude": -119.275205
    },
    {
        "city": "Kirkland",
        "latitude": 47.6765382,
        "longitude": -122.2070775
    },
    {
        "city": "Burien",
        "latitude": 47.469918,
        "longitude": -122.3485274
    },
    {
        "city": "Sammamish",
        "latitude": 47.6088445,
        "longitude": -122.0423067
    },
    {
        "city": "Olympia",
        "latitude": 47.0451022,
        "longitude": -122.8950075
    },
    {
        "city": "Lacey",
        "latitude": 47.0263876,
        "longitude": -122.8072257
    },
    {
        "city": "Edmonds",
        "latitude": 47.8105738,
        "longitude": -122.3774952
    },
    {
        "city": "Bremerton",
        "latitude": 47.5653663,
        "longitude": -122.6246836
    },
    {
        "city": "Puyallup",
        "latitude": 47.1849009,
        "longitude": -122.29214
    },
    {
        "city": "Denver",
        "latitude": 39.7392364,
        "longitude": -104.984862
    },
    {
        "city": "Colorado Springs",
        "latitude": 38.8339578,
        "longitude": -104.825348
    },
    {
        "city": "Aurora",
        "latitude": 39.7405111,
        "longitude": -104.8309947
    },
    {
        "city": "Fort Collins",
        "latitude": 40.5508527,
        "longitude": -105.0668085
    },
    {
        "city": "Lakewood",
        "latitude": 39.7085736,
        "longitude": -105.0846694
    },
    {
        "city": "Thornton",
        "latitude": 39.8695516,
        "longitude": -104.985181
    },
    {
        "city": "Arvada",
        "latitude": 39.8005505,
        "longitude": -105.0811573
    },
    {
        "city": "Westminster",
        "latitude": 39.8366528,
        "longitude": -105.0372046
    },
    {
        "city": "Pueblo",
        "latitude": 38.2544472,
        "longitude": -104.609141
    },
    {
        "city": "Centennial",
        "latitude": 39.579155,
        "longitude": -104.8769227
    },
    {
        "city": "Boulder",
        "latitude": 40.0154155,
        "longitude": -105.270241
    },
    {
        "city": "Greeley",
        "latitude": 40.4233142,
        "longitude": -104.7091322
    },
    {
        "city": "Longmont",
        "latitude": 40.1672117,
        "longitude": -105.1019287
    },
    {
        "city": "Loveland",
        "latitude": 40.3977612,
        "longitude": -105.0749801
    },
    {
        "city": "Grand Junction",
        "latitude": 39.063956,
        "longitude": -108.5507317
    },
    {
        "city": "Broomfield",
        "latitude": 39.9403995,
        "longitude": -105.05208
    },
    {
        "city": "Castle Rock",
        "latitude": 39.3722552,
        "longitude": -104.8586826
    },
    {
        "city": "Commerce City",
        "latitude": 39.8083196,
        "longitude": -104.9338675
    },
    {
        "city": "Parker",
        "latitude": 39.5184514,
        "longitude": -104.7612638
    },
    {
        "city": "Littleton",
        "latitude": 39.613321,
        "longitude": -105.016649
    },
    {
        "city": "Northglenn",
        "latitude": 39.9100858,
        "longitude": -104.987552
    },
    {
        "city": "Washington",
        "latitude": 38.8950368,
        "longitude": -77.0365427
    },
    {
        "city": "Baltimore",
        "latitude": 39.2908816,
        "longitude": -76.610759
    },
    {
        "city": "Frederick",
        "latitude": 39.415779,
        "longitude": -77.4127562
    },
    {
        "city": "Rockville",
        "latitude": 39.0817985,
        "longitude": -77.1516844
    },
    {
        "city": "Gaithersburg",
        "latitude": 39.1399187,
        "longitude": -77.1929215
    },
    {
        "city": "Bowie",
        "latitude": 38.9424464,
        "longitude": -76.7301718
    },
    {
        "city": "Hagerstown",
        "latitude": 39.6430455,
        "longitude": -77.7191081
    },
    {
        "city": "Annapolis",
        "latitude": 38.9786401,
        "longitude": -76.492786
    },
    {
        "city": "Louisville/Jefferson County",
        "latitude": 38.209237,
        "longitude": -85.7038502
    },
    {
        "city": "Lexington-Fayette",
        "latitude": 38.0464066,
        "longitude": -84.4970393
    },
    {
        "city": "Bowling Green",
        "latitude": 36.9903199,
        "longitude": -86.4436018
    },
    {
        "city": "Owensboro",
        "latitude": 37.7742152,
        "longitude": -87.1133304
    },
    {
        "city": "Covington",
        "latitude": 39.0836224,
        "longitude": -84.508371
    },
    {
        "city": "Portland",
        "latitude": 45.5202471,
        "longitude": -122.674194
    },
    {
        "city": "Eugene",
        "latitude": 44.0505054,
        "longitude": -123.0950506
    },
    {
        "city": "Salem",
        "latitude": 44.9391565,
        "longitude": -123.033121
    },
    {
        "city": "Gresham",
        "latitude": 45.4997475,
        "longitude": -122.4309766
    },
    {
        "city": "Hillsboro",
        "latitude": 45.5228939,
        "longitude": -122.989827
    },
    {
        "city": "Beaverton",
        "latitude": 45.4871723,
        "longitude": -122.80378
    },
    {
        "city": "Bend",
        "latitude": 44.0581728,
        "longitude": -121.3153096
    },
    {
        "city": "Medford",
        "latitude": 42.3264181,
        "longitude": -122.8718605
    },
    {
        "city": "Springfield",
        "latitude": 44.0462362,
        "longitude": -123.0220289
    },
    {
        "city": "Corvallis",
        "latitude": 44.5645659,
        "longitude": -123.2620435
    },
    {
        "city": "Albany",
        "latitude": 44.6365071,
        "longitude": -123.1059324
    },
    {
        "city": "Tigard",
        "latitude": 45.4307473,
        "longitude": -122.771933
    },
    {
        "city": "Lake Oswego",
        "latitude": 45.4206749,
        "longitude": -122.670649
    },
    {
        "city": "Keizer",
        "latitude": 44.9969,
        "longitude": -123.0266267
    },
    {
        "city": "Oklahoma City",
        "latitude": 35.4729886,
        "longitude": -97.5170536
    },
    {
        "city": "Tulsa",
        "latitude": 36.1563122,
        "longitude": -95.9927436
    },
    {
        "city": "Norman",
        "latitude": 35.2225717,
        "longitude": -97.4394816
    },
    {
        "city": "Broken Arrow",
        "latitude": 36.0525993,
        "longitude": -95.7908195
    },
    {
        "city": "Lawton",
        "latitude": 34.6086854,
        "longitude": -98.3903305
    },
    {
        "city": "Edmond",
        "latitude": 35.6571367,
        "longitude": -97.4649038
    },
    {
        "city": "Moore",
        "latitude": 35.3383254,
        "longitude": -97.4867045
    },
    {
        "city": "Midwest City",
        "latitude": 35.4495097,
        "longitude": -97.3967025
    },
    {
        "city": "Enid",
        "latitude": 36.3967623,
        "longitude": -97.8791341
    },
    {
        "city": "Stillwater",
        "latitude": 36.1156306,
        "longitude": -97.0585717
    },
    {
        "city": "Muskogee",
        "latitude": 35.7478769,
        "longitude": -95.3696909
    },
    {
        "city": "Milwaukee",
        "latitude": 43.0349931,
        "longitude": -87.922497
    },
    {
        "city": "Madison",
        "latitude": 43.074761,
        "longitude": -89.3837613
    },
    {
        "city": "Green Bay",
        "latitude": 44.5126379,
        "longitude": -88.0125794
    },
    {
        "city": "Kenosha",
        "latitude": 42.5846773,
        "longitude": -87.8212263
    },
    {
        "city": "Racine",
        "latitude": 42.7260523,
        "longitude": -87.7825242
    },
    {
        "city": "Appleton",
        "latitude": 44.2613967,
        "longitude": -88.4069744
    },
    {
        "city": "Waukesha",
        "latitude": 43.0116784,
        "longitude": -88.2314813
    },
    {
        "city": "Eau Claire",
        "latitude": 44.811349,
        "longitude": -91.4984941
    },
    {
        "city": "Oshkosh",
        "latitude": 44.0206919,
        "longitude": -88.5408574
    },
    {
        "city": "Janesville",
        "latitude": 42.6829765,
        "longitude": -89.0226793
    },
    {
        "city": "West Allis",
        "latitude": 43.0166806,
        "longitude": -88.0070315
    },
    {
        "city": "La Crosse",
        "latitude": 43.8122836,
        "longitude": -91.2514355
    },
    {
        "city": "Sheboygan",
        "latitude": 43.7508284,
        "longitude": -87.71453
    },
    {
        "city": "Wauwatosa",
        "latitude": 43.0494122,
        "longitude": -88.0079271
    },
    {
        "city": "Fond du Lac",
        "latitude": 43.7748763,
        "longitude": -88.4458033
    },
    {
        "city": "New Berlin",
        "latitude": 42.976453,
        "longitude": -88.1090391
    },
    {
        "city": "Wausau",
        "latitude": 44.9596017,
        "longitude": -89.6298239
    },
    {
        "city": "Brookfield",
        "latitude": 43.0578479,
        "longitude": -88.1261984
    },
    {
        "city": "Greenfield",
        "latitude": 42.9614039,
        "longitude": -88.0125865
    },
    {
        "city": "Beloit",
        "latitude": 42.5083272,
        "longitude": -89.031784
    },
    {
        "city": "Las Vegas",
        "latitude": 36.1672559,
        "longitude": -115.148516
    },
    {
        "city": "Henderson",
        "latitude": 36.0301134,
        "longitude": -114.9826194
    },
    {
        "city": "Reno",
        "latitude": 39.5261206,
        "longitude": -119.8126581
    },
    {
        "city": "North Las Vegas",
        "latitude": 36.2005843,
        "longitude": -115.121584
    },
    {
        "city": "Sparks",
        "latitude": 39.5404679,
        "longitude": -119.7487235
    },
    {
        "city": "Carson City",
        "latitude": 39.1698022,
        "longitude": -119.7575628
    },
    {
        "city": "Albuquerque",
        "latitude": 35.0841034,
        "longitude": -106.650985
    },
    {
        "city": "Las Cruces",
        "latitude": 32.3140354,
        "longitude": -106.779807
    },
    {
        "city": "Rio Rancho",
        "latitude": 35.2702448,
        "longitude": -106.6329806
    },
    {
        "city": "Santa Fe",
        "latitude": 35.6876096,
        "longitude": -105.938456
    },
    {
        "city": "Roswell",
        "latitude": 33.3943282,
        "longitude": -104.5229518
    },
    {
        "city": "Farmington",
        "latitude": 36.7291152,
        "longitude": -108.205445
    },
    {
        "city": "Clovis",
        "latitude": 34.405472,
        "longitude": -103.2050709
    },
    {
        "city": "Kansas City",
        "latitude": 39.100105,
        "longitude": -94.5781416
    },
    {
        "city": "St. Louis",
        "latitude": 38.6319657,
        "longitude": -90.2428756
    },
    {
        "city": "Springfield",
        "latitude": 37.1968298,
        "longitude": -93.2946576
    },
    {
        "city": "Independence",
        "latitude": 39.0924792,
        "longitude": -94.4137923
    },
    {
        "city": "Columbia",
        "latitude": 38.951883,
        "longitude": -92.3337366
    },
    {
        "city": "Lee's Summit",
        "latitude": 38.9107156,
        "longitude": -94.3821295
    },
    {
        "city": "O'Fallon",
        "latitude": 38.7902503,
        "longitude": -90.7033292
    },
    {
        "city": "St. Joseph",
        "latitude": 39.7686055,
        "longitude": -94.8466322
    },
    {
        "city": "St. Charles",
        "latitude": 38.783855,
        "longitude": -90.481677
    },
    {
        "city": "St. Peters",
        "latitude": 38.791612,
        "longitude": -90.5958468
    },
    {
        "city": "Blue Springs",
        "latitude": 39.017316,
        "longitude": -94.282265
    },
    {
        "city": "Florissant",
        "latitude": 38.7919683,
        "longitude": -90.3227803
    },
    {
        "city": "Joplin",
        "latitude": 37.0841838,
        "longitude": -94.5133385
    },
    {
        "city": "Chesterfield",
        "latitude": 38.661953,
        "longitude": -90.5643258
    },
    {
        "city": "Jefferson City",
        "latitude": 38.577359,
        "longitude": -92.1724265
    },
    {
        "city": "Cape Girardeau",
        "latitude": 37.3034933,
        "longitude": -89.5230357
    },
    {
        "city": "Virginia Beach",
        "latitude": 36.8529841,
        "longitude": -75.9774183
    },
    {
        "city": "Norfolk",
        "latitude": 36.8448348,
        "longitude": -76.2863999
    },
    {
        "city": "Chesapeake",
        "latitude": 36.7183708,
        "longitude": -76.2466798
    },
    {
        "city": "Richmond",
        "latitude": 37.5385087,
        "longitude": -77.43428
    },
    {
        "city": "Newport News",
        "latitude": 36.9775016,
        "longitude": -76.42977
    },
    {
        "city": "Alexandria",
        "latitude": 38.8051095,
        "longitude": -77.0470229
    },
    {
        "city": "Hampton",
        "latitude": 37.0300969,
        "longitude": -76.3452057
    },
    {
        "city": "Roanoke",
        "latitude": 37.270973,
        "longitude": -79.9414313
    },
    {
        "city": "Portsmouth",
        "latitude": 36.8320081,
        "longitude": -76.297699
    },
    {
        "city": "Suffolk",
        "latitude": 36.7282096,
        "longitude": -76.5835703
    },
    {
        "city": "Lynchburg",
        "latitude": 37.4137536,
        "longitude": -79.1422464
    },
    {
        "city": "Harrisonburg",
        "latitude": 38.4493315,
        "longitude": -78.8688833
    },
    {
        "city": "Leesburg",
        "latitude": 39.1154506,
        "longitude": -77.5645607
    },
    {
        "city": "Charlottesville",
        "latitude": 38.029306,
        "longitude": -78.4766781
    },
    {
        "city": "Danville",
        "latitude": 36.5859718,
        "longitude": -79.3950228
    },
    {
        "city": "Blacksburg",
        "latitude": 37.2296566,
        "longitude": -80.4136767
    },
    {
        "city": "Manassas",
        "latitude": 38.7509488,
        "longitude": -77.4752667
    },
    {
        "city": "Atlanta",
        "latitude": 33.7489924,
        "longitude": -84.3902644
    },
    {
        "city": "Columbus",
        "latitude": 32.4610708,
        "longitude": -84.9880449
    },
    {
        "city": "Savannah",
        "latitude": 32.0564572,
        "longitude": -81.0951271
    },
    {
        "city": "Athens-Clarke County",
        "latitude": 33.9597677,
        "longitude": -83.376398
    },
    {
        "city": "Sandy Springs",
        "latitude": 33.9242688,
        "longitude": -84.3785379
    },
    {
        "city": "Roswell",
        "latitude": 34.02332,
        "longitude": -84.360022
    },
    {
        "city": "Macon",
        "latitude": 32.8406946,
        "longitude": -83.6324022
    },
    {
        "city": "Johns Creek",
        "latitude": 34.0181557,
        "longitude": -84.190196
    },
    {
        "city": "Albany",
        "latitude": 31.5782062,
        "longitude": -84.1556809
    },
    {
        "city": "Warner Robins",
        "latitude": 32.6200973,
        "longitude": -83.606568
    },
    {
        "city": "Alpharetta",
        "latitude": 34.0709576,
        "longitude": -84.2747329
    },
    {
        "city": "Marietta",
        "latitude": 33.9528472,
        "longitude": -84.5496148
    },
    {
        "city": "Valdosta",
        "latitude": 30.8327022,
        "longitude": -83.2784851
    },
    {
        "city": "Smyrna",
        "latitude": 33.883887,
        "longitude": -84.5147454
    },
    {
        "city": "Dunwoody",
        "latitude": 33.9463786,
        "longitude": -84.3342686
    },
    {
        "city": "Omaha",
        "latitude": 41.2587459,
        "longitude": -95.9383758
    },
    {
        "city": "Lincoln",
        "latitude": 40.8088861,
        "longitude": -96.7077751
    },
    {
        "city": "Bellevue",
        "latitude": 41.1434547,
        "longitude": -95.9124686
    },
    {
        "city": "Grand Island",
        "latitude": 40.924271,
        "longitude": -98.338685
    },
    {
        "city": "Minneapolis",
        "latitude": 44.9772995,
        "longitude": -93.2654692
    },
    {
        "city": "St. Paul",
        "latitude": 44.9497487,
        "longitude": -93.0931028
    },
    {
        "city": "Rochester",
        "latitude": 44.0234387,
        "longitude": -92.4630182
    },
    {
        "city": "Duluth",
        "latitude": 46.7729322,
        "longitude": -92.1251218
    },
    {
        "city": "Bloomington",
        "latitude": 44.8322405,
        "longitude": -93.3204872
    },
    {
        "city": "Brooklyn Park",
        "latitude": 45.1004807,
        "longitude": -93.3443585
    },
    {
        "city": "Plymouth",
        "latitude": 45.0065149,
        "longitude": -93.46651
    },
    {
        "city": "St. Cloud",
        "latitude": 45.5616075,
        "longitude": -94.1642004
    },
    {
        "city": "Eagan",
        "latitude": 44.818173,
        "longitude": -93.1659179
    },
    {
        "city": "Woodbury",
        "latitude": 44.919896,
        "longitude": -92.9339449
    },
    {
        "city": "Maple Grove",
        "latitude": 45.0984983,
        "longitude": -93.4419222
    },
    {
        "city": "Eden Prairie",
        "latitude": 44.8546856,
        "longitude": -93.470786
    },
    {
        "city": "Coon Rapids",
        "latitude": 45.1728923,
        "longitude": -93.3023898
    },
    {
        "city": "Burnsville",
        "latitude": 44.7670567,
        "longitude": -93.2773887
    },
    {
        "city": "Blaine",
        "latitude": 45.1607987,
        "longitude": -93.2349489
    },
    {
        "city": "Lakeville",
        "latitude": 44.650051,
        "longitude": -93.2432791
    },
    {
        "city": "Minnetonka",
        "latitude": 44.9405086,
        "longitude": -93.4638936
    },
    {
        "city": "Apple Valley",
        "latitude": 44.7319094,
        "longitude": -93.21772
    },
    {
        "city": "Edina",
        "latitude": 44.8897027,
        "longitude": -93.3501222
    },
    {
        "city": "St. Louis Park",
        "latitude": 44.9475726,
        "longitude": -93.3569023
    },
    {
        "city": "Mankato",
        "latitude": 44.1634663,
        "longitude": -93.9993505
    },
    {
        "city": "Maplewood",
        "latitude": 45.0082216,
        "longitude": -93.0456985
    },
    {
        "city": "Moorhead",
        "latitude": 46.8739081,
        "longitude": -96.7538674
    },
    {
        "city": "Shakopee",
        "latitude": 44.7980186,
        "longitude": -93.5268986
    },
    {
        "city": "Wichita",
        "latitude": 37.6922361,
        "longitude": -97.3375448
    },
    {
        "city": "Overland Park",
        "latitude": 38.9742502,
        "longitude": -94.6851702
    },
    {
        "city": "Kansas City",
        "latitude": 39.1134562,
        "longitude": -94.626497
    },
    {
        "city": "Olathe",
        "latitude": 38.8838856,
        "longitude": -94.81887
    },
    {
        "city": "Topeka",
        "latitude": 39.049011,
        "longitude": -95.677556
    },
    {
        "city": "Lawrence",
        "latitude": 38.9719384,
        "longitude": -95.2359496
    },
    {
        "city": "Shawnee",
        "latitude": 39.0416718,
        "longitude": -94.7202376
    },
    {
        "city": "Manhattan",
        "latitude": 39.1836082,
        "longitude": -96.5716694
    },
    {
        "city": "Lenexa",
        "latitude": 38.9697458,
        "longitude": -94.7845837
    },
    {
        "city": "Salina",
        "latitude": 38.8402805,
        "longitude": -97.6114237
    },
    {
        "city": "Hutchinson",
        "latitude": 38.0608444,
        "longitude": -97.9297743
    },
    {
        "city": "New Orleans",
        "latitude": 29.9759983,
        "longitude": -90.0782127
    },
    {
        "city": "Baton Rouge",
        "latitude": 30.4507936,
        "longitude": -91.1391153
    },
    {
        "city": "Shreveport",
        "latitude": 32.4707862,
        "longitude": -93.7559378
    },
    {
        "city": "Lafayette",
        "latitude": 30.2043259,
        "longitude": -92.0298813
    },
    {
        "city": "Lake Charles",
        "latitude": 30.2072293,
        "longitude": -93.2061609
    },
    {
        "city": "Kenner",
        "latitude": 29.9942265,
        "longitude": -90.2417806
    },
    {
        "city": "Bossier City",
        "latitude": 32.5369356,
        "longitude": -93.6952689
    },
    {
        "city": "Monroe",
        "latitude": 32.5102427,
        "longitude": -92.1032411
    },
    {
        "city": "Alexandria",
        "latitude": 31.2909782,
        "longitude": -92.4616292
    },
    {
        "city": "Honolulu",
        "latitude": 21.304547,
        "longitude": -157.855676
    },
    {
        "city": "Anchorage",
        "latitude": 61.2163129,
        "longitude": -149.894852
    },
    {
        "city": "Newark",
        "latitude": 40.735657,
        "longitude": -74.1723667
    },
    {
        "city": "Jersey City",
        "latitude": 40.7215682,
        "longitude": -74.047455
    },
    {
        "city": "Paterson",
        "latitude": 40.9167654,
        "longitude": -74.171811
    },
    {
        "city": "Elizabeth",
        "latitude": 40.6639916,
        "longitude": -74.2107006
    },
    {
        "city": "Clifton",
        "latitude": 40.8584328,
        "longitude": -74.1637553
    },
    {
        "city": "Trenton",
        "latitude": 40.2205944,
        "longitude": -74.7597219
    },
    {
        "city": "Camden",
        "latitude": 39.9448402,
        "longitude": -75.1198911
    },
    {
        "city": "Passaic",
        "latitude": 40.8567663,
        "longitude": -74.1284764
    },
    {
        "city": "Union City",
        "latitude": 40.7795455,
        "longitude": -74.0237512
    },
    {
        "city": "Bayonne",
        "latitude": 40.6687141,
        "longitude": -74.1143091
    },
    {
        "city": "East Orange",
        "latitude": 40.767323,
        "longitude": -74.2048677
    },
    {
        "city": "Vineland",
        "latitude": 39.4862777,
        "longitude": -75.0254256
    },
    {
        "city": "New Brunswick",
        "latitude": 40.4862174,
        "longitude": -74.4518173
    },
    {
        "city": "Hoboken",
        "latitude": 40.7433066,
        "longitude": -74.0323752
    },
    {
        "city": "Perth Amboy",
        "latitude": 40.5200187,
        "longitude": -74.2745215
    },
    {
        "city": "West New York",
        "latitude": 40.7856117,
        "longitude": -74.0093129
    },
    {
        "city": "Plainfield",
        "latitude": 40.6337136,
        "longitude": -74.4073737
    },
    {
        "city": "Hackensack",
        "latitude": 40.8871438,
        "longitude": -74.0410865
    },
    {
        "city": "Sayreville",
        "latitude": 40.4635362,
        "longitude": -74.3618499
    },
    {
        "city": "Kearny",
        "latitude": 40.7684342,
        "longitude": -74.1454214
    },
    {
        "city": "Linden",
        "latitude": 40.6220478,
        "longitude": -74.2445902
    },
    {
        "city": "Atlantic City",
        "latitude": 39.3642852,
        "longitude": -74.4229351
    },
    {
        "city": "Boise City",
        "latitude": 43.6166163,
        "longitude": -116.200886
    },
    {
        "city": "Nampa",
        "latitude": 43.5737361,
        "longitude": -116.559631
    },
    {
        "city": "Meridian",
        "latitude": 43.6086295,
        "longitude": -116.392326
    },
    {
        "city": "Idaho Falls",
        "latitude": 43.4887907,
        "longitude": -112.03628
    },
    {
        "city": "Pocatello",
        "latitude": 42.8620287,
        "longitude": -112.450627
    },
    {
        "city": "Caldwell",
        "latitude": 43.6678736,
        "longitude": -116.6894156
    },
    {
        "city": "Coeur d'Alene",
        "latitude": 47.6742994,
        "longitude": -116.7811531
    },
    {
        "city": "Twin Falls",
        "latitude": 42.5704456,
        "longitude": -114.4602554
    },
    {
        "city": "Birmingham",
        "latitude": 33.5206824,
        "longitude": -86.8024326
    },
    {
        "city": "Montgomery",
        "latitude": 32.3669656,
        "longitude": -86.3006485
    },
    {
        "city": "Mobile",
        "latitude": 30.6867339,
        "longitude": -88.0848929
    },
    {
        "city": "Huntsville",
        "latitude": 34.729847,
        "longitude": -86.5859011
    },
    {
        "city": "Tuscaloosa",
        "latitude": 33.2847082,
        "longitude": -87.50281888963718
    },
    {
        "city": "Hoover",
        "latitude": 33.35029299999999,
        "longitude": -86.85112299766301
    },
    {
        "city": "Dothan",
        "latitude": 31.2237434,
        "longitude": -85.3933906
    },
    {
        "city": "Auburn",
        "latitude": 32.6098566,
        "longitude": -85.4807825
    },
    {
        "city": "Decatur",
        "latitude": 34.6060203,
        "longitude": -86.9838165
    },
    {
        "city": "Madison",
        "latitude": 34.6928726,
        "longitude": -86.7511427
    },
    {
        "city": "Florence",
        "latitude": 34.79981,
        "longitude": -87.677251
    },
    {
        "city": "Gadsden",
        "latitude": 34.010929,
        "longitude": -85.9989596
    },
    {
        "city": "Des Moines",
        "latitude": 41.5910323,
        "longitude": -93.6046655
    },
    {
        "city": "Cedar Rapids",
        "latitude": 41.9758872,
        "longitude": -91.6704053
    },
    {
        "city": "Davenport",
        "latitude": 41.5235808,
        "longitude": -90.5770967
    },
    {
        "city": "Sioux City",
        "latitude": 42.4966815,
        "longitude": -96.4058782
    },
    {
        "city": "Iowa City",
        "latitude": 41.6612561,
        "longitude": -91.5299106
    },
    {
        "city": "Waterloo",
        "latitude": 42.498275,
        "longitude": -92.3328743
    },
    {
        "city": "Council Bluffs",
        "latitude": 41.258841,
        "longitude": -95.8519484
    },
    {
        "city": "Ames",
        "latitude": 42.0267567,
        "longitude": -93.6170448
    },
    {
        "city": "West Des Moines",
        "latitude": 41.5644476,
        "longitude": -93.7594059
    },
    {
        "city": "Dubuque",
        "latitude": 42.5006243,
        "longitude": -90.6647985
    },
    {
        "city": "Ankeny",
        "latitude": 41.7320796,
        "longitude": -93.605092
    },
    {
        "city": "Urbandale",
        "latitude": 41.6274511,
        "longitude": -93.7380243
    },
    {
        "city": "Cedar Falls",
        "latitude": 42.5361805,
        "longitude": -92.447758
    },
    {
        "city": "Little Rock",
        "latitude": 34.7465071,
        "longitude": -92.2896267
    },
    {
        "city": "Fort Smith",
        "latitude": 35.3880338,
        "longitude": -94.4265011
    },
    {
        "city": "Fayetteville",
        "latitude": 36.0625843,
        "longitude": -94.1574328
    },
    {
        "city": "Springdale",
        "latitude": 36.1867442,
        "longitude": -94.1288142
    },
    {
        "city": "Jonesboro",
        "latitude": 35.8272257,
        "longitude": -90.6949871
    },
    {
        "city": "North Little Rock",
        "latitude": 34.769536,
        "longitude": -92.2670941
    },
    {
        "city": "Conway",
        "latitude": 35.0891932,
        "longitude": -92.4398402
    },
    {
        "city": "Rogers",
        "latitude": 36.3320197,
        "longitude": -94.1185366
    },
    {
        "city": "Pine Bluff",
        "latitude": 34.2157064,
        "longitude": -92.0140402
    },
    {
        "city": "Bentonville",
        "latitude": 36.3728538,
        "longitude": -94.2088172
    },
    {
        "city": "Salt Lake City",
        "latitude": 40.7596198,
        "longitude": -111.8867975
    },
    {
        "city": "West Valley City",
        "latitude": 40.6967254,
        "longitude": -111.986821
    },
    {
        "city": "Provo",
        "latitude": 40.2337289,
        "longitude": -111.6587085
    },
    {
        "city": "West Jordan",
        "latitude": 40.6061337,
        "longitude": -111.9395211
    },
    {
        "city": "Orem",
        "latitude": 40.2981599,
        "longitude": -111.6944313
    },
    {
        "city": "Sandy",
        "latitude": 40.5710454,
        "longitude": -111.8953815
    },
    {
        "city": "Ogden",
        "latitude": 41.2230048,
        "longitude": -111.9738429
    },
    {
        "city": "St. George",
        "latitude": 37.104153,
        "longitude": -113.5841313
    },
    {
        "city": "Layton",
        "latitude": 41.0751048,
        "longitude": -111.9741925
    },
    {
        "city": "Taylorsville",
        "latitude": 40.6676347,
        "longitude": -111.9388027
    },
    {
        "city": "Providence",
        "latitude": 41.8239891,
        "longitude": -71.4128343
    },
    {
        "city": "Cranston",
        "latitude": 41.7809588,
        "longitude": -71.4371257
    },
    {
        "city": "Warwick",
        "latitude": 41.7002024,
        "longitude": -71.4161108
    },
    {
        "city": "Pawtucket",
        "latitude": 41.878711,
        "longitude": -71.3825558
    },
    {
        "city": "East Providence",
        "latitude": 41.8137116,
        "longitude": -71.3700545
    },
    {
        "city": "Jackson",
        "latitude": 32.3086744,
        "longitude": -90.1983063
    },
    {
        "city": "Gulfport",
        "latitude": 30.3674198,
        "longitude": -89.0928155
    },
    {
        "city": "Southaven",
        "latitude": 34.9873822,
        "longitude": -90.0034862
    },
    {
        "city": "Biloxi",
        "latitude": 30.4007626,
        "longitude": -88.8893818
    },
    {
        "city": "Hattiesburg",
        "latitude": 31.3271189,
        "longitude": -89.2903392
    },
    {
        "city": "Olive Branch",
        "latitude": 34.9617605,
        "longitude": -89.8295315
    },
    {
        "city": "Tupelo",
        "latitude": 34.2576067,
        "longitude": -88.7033859
    },
    {
        "city": "Meridian",
        "latitude": 32.3643098,
        "longitude": -88.703656
    },
    {
        "city": "Greenville",
        "latitude": 33.4000633,
        "longitude": -91.0551312
    },
    {
        "city": "Horn Lake",
        "latitude": 34.9553719,
        "longitude": -90.0348139
    },
    {
        "city": "Sioux Falls",
        "latitude": 43.5488256,
        "longitude": -96.7307737
    },
    {
        "city": "Rapid City",
        "latitude": 44.0869329,
        "longitude": -103.2274481
    },
    {
        "city": "Aberdeen",
        "latitude": 45.4649805,
        "longitude": -98.487813
    },
    {
        "city": "Brookings",
        "latitude": 44.311461,
        "longitude": -96.79844
    },
    {
        "city": "Bridgeport",
        "latitude": 41.1670412,
        "longitude": -73.2048348
    },
    {
        "city": "New Haven",
        "latitude": 41.3082138,
        "longitude": -72.9250518
    },
    {
        "city": "Stamford",
        "latitude": 41.0534302,
        "longitude": -73.5387341
    },
    {
        "city": "Hartford",
        "latitude": 41.764582,
        "longitude": -72.6908547
    },
    {
        "city": "Waterbury",
        "latitude": 41.5538091,
        "longitude": -73.0438362
    },
    {
        "city": "Norwalk",
        "latitude": 41.1175966,
        "longitude": -73.4078968
    },
    {
        "city": "Danbury",
        "latitude": 41.394817,
        "longitude": -73.4540111
    },
    {
        "city": "New Britain",
        "latitude": 41.6612104,
        "longitude": -72.7795419
    },
    {
        "city": "West Hartford",
        "latitude": 41.7620447,
        "longitude": -72.7420399
    },
    {
        "city": "Greenwich",
        "latitude": 41.0264862,
        "longitude": -73.6284598
    },
    {
        "city": "Columbia",
        "latitude": 34.0007493,
        "longitude": -81.0343313
    },
    {
        "city": "Charleston",
        "latitude": 32.7876012,
        "longitude": -79.9402728
    },
    {
        "city": "North Charleston",
        "latitude": 32.8546197,
        "longitude": -79.9748103
    },
    {
        "city": "Mount Pleasant",
        "latitude": 32.7940651,
        "longitude": -79.8625851
    },
    {
        "city": "Rock Hill",
        "latitude": 34.9248667,
        "longitude": -81.0250784
    },
    {
        "city": "Greenville",
        "latitude": 34.851354,
        "longitude": -82.3984882
    },
    {
        "city": "Summerville",
        "latitude": 33.0186699,
        "longitude": -80.1762704
    },
    {
        "city": "Goose Creek",
        "latitude": 32.9961038,
        "longitude": -80.0387292
    },
    {
        "city": "Sumter",
        "latitude": 33.9204354,
        "longitude": -80.3414693
    },
    {
        "city": "Hilton Head Island",
        "latitude": 32.1618488,
        "longitude": -80.7512616
    },
    {
        "city": "Manchester",
        "latitude": 42.9956397,
        "longitude": -71.4547891
    },
    {
        "city": "Nashua",
        "latitude": 42.7656251,
        "longitude": -71.4677032
    },
    {
        "city": "Concord",
        "latitude": 43.207178,
        "longitude": -71.537476
    },
    {
        "city": "Fargo",
        "latitude": 46.877229,
        "longitude": -96.789821
    },
    {
        "city": "Bismarck",
        "latitude": 46.808327,
        "longitude": -100.783739
    },
    {
        "city": "Grand Forks",
        "latitude": 47.9252042,
        "longitude": -97.0306741
    },
    {
        "city": "Minot",
        "latitude": 48.23251,
        "longitude": -101.296273
    },
    {
        "city": "Billings",
        "latitude": 45.7874957,
        "longitude": -108.49607
    },
    {
        "city": "Missoula",
        "latitude": 46.8701049,
        "longitude": -113.995267
    },
    {
        "city": "Great Falls",
        "latitude": 47.5048851,
        "longitude": -111.29189
    },
    {
        "city": "Bozeman",
        "latitude": 45.6794293,
        "longitude": -111.044047
    },
    {
        "city": "Wilmington",
        "latitude": 39.7459468,
        "longitude": -75.546589
    },
    {
        "city": "Dover",
        "latitude": 39.158168,
        "longitude": -75.5243682
    },
    {
        "city": "Portland",
        "latitude": 43.6610277,
        "longitude": -70.2548596
    },
    {
        "city": "Cheyenne",
        "latitude": 41.139981,
        "longitude": -104.820246
    },
    {
        "city": "Casper",
        "latitude": 42.8501191,
        "longitude": -106.325138
    },
    {
        "city": "Charleston",
        "latitude": 38.3505995,
        "longitude": -81.6332812
    },
    {
        "city": "Huntington",
        "latitude": 38.4192496,
        "longitude": -82.445154
    },
    {
        "city": "Morgantown",
        "latitude": 39.6296809,
        "longitude": -79.9559437
    },
    {
        "city": "Parkersburg",
        "latitude": 39.2699565,
        "longitude": -81.5506916
    },
    {
        "city": "Wheeling",
        "latitude": 40.0639616,
        "longitude": -80.7209149
    },
    {
        "city": "Weirton",
        "latitude": 40.4002396,
        "longitude": -80.5899788
    },
    {
        "city": "Fairmont",
        "latitude": 39.4850848,
        "longitude": -80.1425781
    },
    {
        "city": "Beckley",
        "latitude": 37.7781702,
        "longitude": -81.1881557
    },
    {
        "city": "Martinsburg",
        "latitude": 39.4562528,
        "longitude": -77.9639604
    },
    {
        "city": "Clarksburg",
        "latitude": 39.2806451,
        "longitude": -80.3445341
    },
    {
        "city": "Burlington",
        "latitude": 44.4761601,
        "longitude": -73.212906
    }
]